Station No,Place,Catchment Area(km²),Latitude,Longitude,Data Available
A2H005,Hennops River @ Zwartkop,808,-25.82947,28.14,1904-11-16 to 1950-10-01
A2H045,Krokodil River @ Vlakfontein,653,-25.89275,27.91483,1972-05-25 to 2018-04-25
A3H018,Malmanieloop @ Naauwpoort,,-25.81422,26.04913,1970-04-01 to 1992-05-20
C2H001,Mooi River @ Witrand,3595,-26.64428,27.09033,1904-07-31 to 2019-09-12
C2H004,Suikerbosrant River @ Uitvlugt,3474,-26.67075,28.03044,1952-09-28 to 2017-12-31
C2H006,Mooi River @ Klerkskraal,1335,-26.25272,27.16027,1906-07-01 to 1966-08-06
C2H007,Vaal River @ Pilgrims Estate,63437,-27.01011,26.69808,1938-10-13 to 2019-06-12
C2H009,Skoon Spruit @ Roodepoort,1535,-26.28969,26.83911,1907-04-01 to 1928-09-30
C2H013,Turffontein Upper Eye @ Turffontein,,-26.41019,27.17442,1911-10-28 to 1999-03-03
C2H019,Skoon Spruit @ Roodepoort,1545,-26.31133,26.83716,1951-07-24 to 1969-05-01
C2H020,Klip River @ Witpoortjie,46,-26.18383,27.81827,1952-03-04 to 1965-06-09
C2H023,Wonderfontein Spruit @ Luipaardsvlei,83,-26.22441,27.73969,1957-10-04 to 1994-11-23
C2H024,Wonderfontein Spruit @ Gemsbokfontein,167,-26.28472,27.67997,1957-10-04 to 1996-05-15
C2H025,Wonderfontein Spruit 7 @ Gemsbokfontein,178,-26.28883,27.66922,1959-10-07 to 2006-08-10
C2H026,Middelvlei Spruit @ Middelvlei,26,-26.23302,27.66886,1957-10-05 to 1996-09-13
C2H027,Kocksoord Spruit @ Middelvlei,4,-26.23383,27.65219,1957-10-10 to 1992-12-16
C2H028,Rietfontein Spruit @ Rietfontein,31,-26.24833,27.58969,1957-10-05 to 1993-03-24
C2H031,Mooirivierloop @ Wonderfontein,920,-26.32383,27.41438,1958-03-02 to 1966-05-01
C2H032,Mooirivierloop @ Wonderfontein,964,-26.31722,27.39216,1958-04-01 to 1987-06-08
C2H033,Buffelsdoorn Spruit @ Doornfontein,21,-26.43722,27.32686,1957-10-01 to 1971-02-16
C2H034,Blyvooruitsig Spruit @ Blyvooruitzicht,18,-26.41441,27.40277,1957-09-20 to 1965-06-30
C2H035,Mooirivierloop @ Welverdiend,1333,-26.36941,27.25466,1959-10-01 to 1970-12-31
C2H036,Rietvallei Spruit @ Rietvallei,7.6,-26.37969,27.09966,1957-10-08 to 1960-11-30
C2H037,Du Toit Spruit @ Du Toits Spruit,71,-26.4605,27.05466,1957-10-04 to 1963-11-30
C2H041,Klip River @ Doornkop,112,-26.25863,27.81219,1957-10-01 to 1963-04-20
C2H047,Mooirivierloop @ Kiel,,-26.4505,27.14547,1957-12-01 to 1959-08-24
C2H062,Little-Rietspruit @ Rietfontein,1.4,-26.4058,27.60077,1984-03-08 to 1984-10-29
C2H069,Mooirivierloop @ Blaauwbank,1511,-26.37022,27.24811,1971-05-25 to 2019-06-07
C2H137,Klip River @ Zwartkopjes,,-26.38025,28.0708,2011-10-11 to 2018-08-12
C2H139,Koekemoer Spruit @ Buffelsfontein,818,-26.91606,26.81722,1996-05-22 to 2018-05-31
C2H145,Blesbok Spruit @ Vlakfontein,745,-26.36033,28.51017,2003-11-06 to 2011-05-16
C2H148,Blesbok Spruit @ Nigel,840,-26.39058,28.49728,2003-11-06 to 2013-09-22
C2H149,Blesbok Spruit @ Nigel East,1030,-26.428,28.50333,2003-11-07 to 2005-03-03
C2H272,Vaal @ Bankfontein (Lethabo),,-26.73147,27.99183,2004-07-09 to 2019-09-30
C2H274,Vierfontein Spruit @ Groenfontein,0,-27.07138,26.75833,2005-06-29 to 2019-07-25
C2L001,Margaret 1,,-26.83439,26.80956,2005-09-05 to 2014-09-01
C2L002,Margaret Two,,-26.84627,26.83332,2005-10-10 to 2007-08-24
A2H001,Krokodil River @ Hartbeespoort,2909,-25.73386,27.85969,1904-08-01 to 1922-09-01
A2H002,Magalies River @ Hartbeespoort,1207,-25.74497,27.85158,1904-08-01 to 1942-08-02
A2H003,Hex River @ Olifantspoort,495,-25.77944,27.26638,1904-11-18 to 1930-01-02
A2H004,Plat River @ Roodepoort,137,-24.87002,28.26333,1903-10-01 to 1946-07-20
A2H006,Pienaars River @ Klipdrift,1028,-25.38022,28.3165,1905-03-01 to 2019-07-17
A2H007,Apies River @ Daspoort,142,-25.72888,28.16886,1908-07-01 to 1951-08-01
A2H008,Elandsfontein Eye @ Elandsfontein ,,-25.98583,28.33111,1917-10-03 to 2003-09-14
A2H010,Maloney's-Eye @ Steenekoppie,,-26.02236,27.56336,1908-08-20 TO 2013-10-21
A2H011,Apies River @ Bon Accord,308,-25.62558,28.19111,1919-12-20 to 1921-12-01
A2H012,Krokodil River @ Kalkheuwel,2551,-25.81056,27.90983,1922-10-01 to 2019-01-31
A2H013,Magalies River @ Scheerpoort,1171,-25.77703,27.76117,1922-10-01 to 2019-07-17
A2H014,Hennops River @ Skurweberg,1007,-25.79828,27.98539,1922-11-13 to 2019-09-25
A2H015,Krokodil River @ Buffelshoek,23940,-24.67313,27.3955,1927-10-01 to 1931-09-30
A2H016,Sterkstroom River @ Buffelspoort,140,-25.75055,27.48608,1927-11-16 to 1934-02-01
A2H017,Hex River @ Boschpoort,1071,-25.54336,27.35638,1927-12-08 to 1937-01-31
A2H018,Krokodil River @ Donkerpoort,1070,-24.63452,27.31638,1933-11-06 to 1937-03-31
A2H020,Elands River @ Bulhoek,4558,-25.31088,27.45719,1951-02-01 to 1970-11-23
A2H021,Pienaars River @ Buffelspoort,7483,-25.12856,27.62858,1955-09-01 to 2019-07-18
A2H022,Krokodil River @ Welgegund,2616,-25.79777,27.89552,1955-10-18 to 1967-02-23
A2H023,Jukskei River @ Nietgedacht,686,-25.95444,27.96256,1965-10-23 to 2019-09-23
A2H024,Brandvlei River @ Brandvlei,13,-26.151,27.59478,1965-12-19 to 2019-07-15
A2H025,Krokodil River @ Hardekoolbult,21349,-24.93391,27.548,1959-07-17 to 1992-08-25
A2H026,Apies River @ Hamanskraal,676,-25.40638,28.278,1960-11-03 to 1983-03-16
A2H027,Pienaars River @ Baviaanspoort,357,-25.66361,28.35131,1962-05-22 to 2018-05-21
A2H028,Hartbees Spruit @ Kameeldrift,161,-25.65136,28.31911,1962-05-27 to 1995-05-25
A2H029,Edendale Spruit @ Leeuwfontein,129,-25.64711,28.39039,1962-05-21 to 2019-06-19
A2H030,Roodeplaat Spruit @ Louwsbaken se Loop Roodeplaat,116,-25.60286,28.37517,1962-05-24 to 2018-06-05
A2H031,Sand River @ Buffelspoort,1124,-25.13561,27.62719,1963-01-01 to 1970-09-30
A2H032,Selons River @ Moedwil,522,-25.6375,27.02703,1963-09-05 to 2019-06-26
A2H033,Nouklip-Eye @ Hartbeeshoek,,-25.87483,27.78144,1964-06-24 TO 2019-06-26
A2H034,Skeerpoort River @ Scheerpoort,150,-25.82492,27.77181,1964-02-03 to 2019-09-27
A2H035,Skeerpoort River @ Hartbeeshoek,98,-25.86805,27.783,1964-06-23 to 1982-09-26
A2H036,Koster River @ Steenbokfontein,191,-25.72583,26.88442,1965-11-09 to 2018-05-29
A2H037,Krokodil River @ Buffelshoek,23762,-24.66422,27.3755,1967-05-23 to 1992-08-25
A2H038,Waterkloof-Lower @ Rietvallei,,-25.73486,27.21425,1970-12-23 to 2019-06-24
A2H039,Waterkloof-Upper @ Rietvallei,,-25.72025,27.18556,1971-05-18 to 2019-06-24
A2H040,Jukskei River @ Waterval,199,-26.03194,28.11188,1971-07-02 to 1993-03-15
A2H041,Apies River @ Daspoort,142,-25.72886,28.16891,1909-01-09 to 1947-03-30
A2H042,Jukskei River @ Lone Hill,409,-26.00583,28.03302,1971-07-01 to 1995-11-20
A2H044,Jukskei River @ Vlakfontein,798,-25.8955,27.93481,1971-07-18 to 2019-06-18
A2H047,Little Jukskei River @ Klipfontein,65,-26.06831,27.97253,1971-07-21 to 2018-06-05
A2H048,Krokodil River @ Krokodilpoort,4691,-25.57342,27.75411,1972-02-25 to 2018-05-06
A2H049,Bloubank Spruit @ Riet Spruit Zwartkop,371,-25.97681,27.83639,1972-07-04 to 2019-09-23
A2H050,Krokodil River @ Zwartkop,148,-25.99142,27.84211,1973-04-06 to 2019-06-18
A2H051,Krokodil River @ Van Wyks Restant,109,-26.03303,27.84269,1973-05-28 to 2011-07-11
A2H052,Krokodil River @ Krokodildrift,4355,-25.64613,27.78413,1975-01-23 to 1990-05-15
A2H053,Sterkstroom @ Grootfontein,88,-25.80925,27.47603,1973-07-13 to 2018-06-07
A2H054,Hartbees Spruit @ Wolmaranspoort,35,-25.68356,28.28661,1982-09-02 to 2018-05-21
A2H055,Moretele River @ Derdepoort Pretoria,106,-25.69239,28.29314,1982-10-27 to 2019-06-19
A2H056,Steenoond Spruit @ Belle Ombre Sta.,10,-25.73481,28.17925,1982-09-02 to 2018-05-22
A2H058,Swart Spruit @ Rietfontein,107,-25.74819,27.90986,1982-09-02 to 2019-09-25
A2H059,Krokodil River @ Vaalkop,12674,-25.20631,27.55794,1982-03-31 to 2019-07-16
A2H060,Krokodil River @ Nooitgedacht,20627,-25.06303,27.52,1982-08-16 to 2019-07-16
A2H061,Apies River @ Rondavel,625,-25.47086,28.26378,1984-04-13 to 2019-07-17
A2H062,Walker Spruit @ Sunnyside Pretoria,8.1,-25.75897,28.21953,1984-05-09 to 2018-05-21
A2H063,Wonderboom Spruit @ Mayville Pretoria,30,-25.70139,28.19161,1984-05-10 to 2018-05-22
A2H064,Plat River @ Buffel Spruit,115,-24.83731,28.22628,1985-05-28 to 2019-09-24
A2H065,Frisgewaag Spruit @ Buffel Spruit,43,-24.82933,28.22247,1985-05-28 to 2018-06-01
A2H074,Magalies River @ Hartbeespoort,1207,-25.74497,27.85158,1905-11-14 to 1909-12-27
A2H075,Hex River @ Olifantspoort,495,-25.77944,27.26638,1907-01-31 to 1928-01-13
A2H076,Hennops River @ Zwartkop,808,-25.82947,28.14,1905-12-16 to 1945-03-06
A2H077,Pienaars River @ Klipdrift,1028,-25.38119,28.31641,1905-12-15 to 1950-03-04
A2H078,Krokodil River @ Kalkheuwel,2551,-25.80777,27.91025,1924-12-29 to 1955-11-22
A2H079,Magalies River @ Scheerpoort,1171,-25.77666,27.76219,1943-12-16 to 1956-10-30
A2H081,Left Canal from Hartbeespoort Dam @ Hartbeesfontein ,,-25.72472,27.84597,1956-03-31 to 2019-07-16
A2H090,Hennops River @ Van Riebeeck Nat Res,451,-25.88555,28.30277,1978-09-19 to 2004-02-19
A2H099,Buffels Spruit @ Roodepoort,137,-24.86064,28.25331,1976-10-17 to 2019-07-17
A2H117,Canal from Dam D/S of Return Flow Pt. @ Hartbeesfont,,-25.72294,27.84789,1989-06-12 to 2019-07-17
A2H118,Hex River @ Boschpoort,,-25.56166,27.35108,1936-10-01 to 1952-08-01
A2H119,Sterkstroom River @ Buffelspoort,140,-25.75055,27.48608,1928-01-12 to 1932-12-26
A2H128,Faure Crocodile River,28780,-24.39619,27.08983,2002-07-29 to 2019-07-16
A2H132,Krokodil River @ Haakdoringdrift,22270,-24.69508,27.409,1987-10-14 to 2019-07-16
A3H001,Klein-Marico River @ Little-Maricopoort,1165,-25.53805,26.10355,1906-09-01 to 1939-09-30
A3H007,Groot-Marico River @ Eerstepoort,8685,-24.86872,26.45408,1957-11-05 to 1984-11-05
A3H008,Groot-Marico River @ Renosterfontein,1213,-25.48116,26.39297,1925-01-23 to 1933-08-31
A3H016,Wilgeboom Spruit @ Wilgerboomspruit,39,-25.59775,26.30655,1965-12-01 to 1992-09-23
A3H021,Malmanieloop Upper-Eye @ Paardenvalle,,-25.63317,25.99131,1975-03-25 to 2018-05-30
A3H027,Klein Marico River @ Little Maricopoort,1165,-25.53805,26.10355,1906-11-10 to 1939-02-17
A4H001,Mokolo River @ Weltevrede,1606,-24.40649,28.10914,1938-07-08 to 1948-06-30
A4H002,Mokolo River @ Zandrivier,1777,-24.28629,28.09553,1948-03-24 to 2019-08-22
A4H003,Sterkstroom @ Doornspruit,519,-24.19123,27.94719,1954-11-01 to 1964-04-05
A4H004,Matlabas River @ Haarlem East,1046,-24.16053,27.47969,1962-08-27 to 2019-08-22
A4H005,Mokolo River @ Dwaalhoek,3786,-24.08066,27.77267,1962-08-27 to 2019-06-13
A4H006,Poerseloop @ Weltevreden,477,-23.85958,27.79108,1962-09-25 to 1967-01-14
A4H007,Tambotie River @ Blakeney,398,-23.76388,27.90899,1962-09-25 to 2019-08-22
A4H008,Sterkstroom @ Doornspruit,504,-24.21681,27.9732,1964-08-21 to 2019-02-21
A4H009,Witbank Spruit @ Hans Strijdom Natres,10,-23.96902,27.71635,1980-10-16 to 2001-05-02
A4H014,Mogol River,8364,-23.23569,27.71696,2004-02-23 to 2015-02-25
A5H001,Palala River @ Melk River,601,-23.99402,28.41221,1937-07-20 to 1967-06-27
A5H002,Palala River @ Over Yssel,2303,-23.63404,28.15637,1957-06-20 to 1966-11-06
A5H003,Limpopo River @ Botswana,98160,-22.95076,27.97358,1959-09-11 to 2002-04-16
A5H004,Palala River @ Muisvogelkraal,629,-23.98181,28.39993,1955-12-01 to 2019-07-11
A5H005,Palala River @ Hopetown,2331,-23.62099,28.14692,1967-01-02 to 1984-03-06
A5H006,Limpopo River @ Botswana,98240,-22.93476,28.00392,1971-03-12 to 2019-05-23
A6H001,Nyl River @ Moorddrift,2366,-24.27622,28.97517,1919-12-05 to 2019-07-12
A6H002,Nyl River @ Deelkraal,738,-24.68286,28.6291,1922-05-01 to 2019-04-01
A6H003,Sterk River @ Bellevue,1373,-23.9418,28.72999,1937-07-21 to 1946-07-31
A6H004,Sterk River @ Paardedrift,513,-24.32261,28.6986,1938-04-22 to 1951-08-31
A6H005,Sterk River @ Eckstein,1352,-23.97013,28.69666,1946-07-11 to 1952-12-31
A6H006,Little Nyl River @ Nylstroom,168,-24.69872,28.40692,1949-08-01 to 2019-07-10
A6H007,Mogalakwena River @ Steilloop,9487,-23.43711,28.62444,1977-10-01 to 1980-06-30
A6H008,Sterk River @ Doorndraai,579,-24.27983,28.77888,1951-02-12 to 1953-02-28
A6H009,Mogalakwena River @ Leniesrus,14733,-22.59801,28.88611,1960-06-13 to 1997-02-02
A6H010,Badseloop River @ Vischgat,70,-24.57398,28.63953,1964-08-28 to 2019-04-01
A6H011,Great-Nyl River @ Modderpoort,73,-24.76184,28.34443,1966-11-24 to 2019-05-28
A6H012,Olifant Spruit @ Olifantspoort,120,-24.66548,28.4761,1966-11-12 to 2019-04-02
A6H013,Groundwater Supplement from Nyl Riv. @ Du Toitskra,,-24.56731,28.7636,1971-02-05 to 1977-11-28
A6H015,Groundwater Supplement from Nyl Riv. @ De Hoop,,-24.44038,28.90305,1971-01-07 to 1974-03-22
A6H018,Rasloop River @ Sussensvale,12,-24.77086,28.3488,1973-07-27 to 2019-07-10
A6H019,Hessie se Water @ Rietspruit,16,-24.65973,28.45079,1973-07-12 to 2019-02-13
A6H020,Middelfontein Spruit @ Middelfontein,43,-24.67111,28.56061,1973-08-10 to 2019-04-01
A6H021,De Wet Spruit @ Groenvaley,16,-24.63301,28.59731,1973-06-26 to 2019-07-10
A6H022,Hartebeestlaagte Spruit @ Hartebeestlaagte,1.7,-24.60203,28.60749,1973-06-26 to 1997-10-01
A6H023,Tobias Spruit @ Saratoga,130,-24.45783,28.74927,1973-09-28 to 2019-02-20
A6H024,Kootjie se Loop Spruit @ Waterval,23,-24.31658,28.91629,1973-08-24 to 2019-04-10
A6H026,Haaskloof Spruit @ Haaskloof,41,-24.37705,28.53026,1988-11-24 to 1994-08-23
A6H033,Nyl River @ Moorddrift,2404,-24.24105,28.97657,1990-11-30 to 2019-04-02
A6H035,Mogalakwena River @ Leniesrus,15845,-22.55021,28.8974,1995-02-02 to 2019-08-21
A6H036,Sterk River @ Appingen Dam,1363,-23.98141,28.69562,1995-11-28 to 2019-07-11
A6H037,Nyl River @ Vogelfontein,1363,-24.61525,28.6903,1997-12-09 to 2019-05-28
A6H038,Nyl River @ Du Toits Kraal,,-24.56631,28.76352,1997-12-02 to 2019-07-10
A6H039,Nyl River @ Middelfontein,,-24.69851,28.54809,1998-02-25 to 2019-06-11
A7H001,Sand River @ Waterpoort,7703,-22.9091,29.61391,1957-07-12 to 2000-01-27
A7H002,Brak River @ Kaalplaats,1868,-22.95076,29.24723,1937-07-26 to 1947-02-28
A7H003,Sand River @ Zamenkomst,6700,-23.06742,29.57891,1947-10-01 to 1995-11-08
A7H004,Limpopo River @ Beit Bridge,202975,-22.2247,29.98698,1955-06-27 to 1992-07-15
A7H006,Sand River @ Zamenkomst,6700,-23.06742,29.57891,1947-11-25 to 1958-12-13
A7H007,Sand River @ Pietersburg,522,-23.88294,29.43149,1991-11-14 to 2019-04-02
A7H008,Limpopo River @ Beit Bridge,202985,-22.22718,29.99035,1992-07-28 to 2019-05-08
A7H009,Sand River @ Dorothy,12873,-22.49135,29.98309,1993-12-06 to 2000-02-26
A7H010,Sand River @ Waterpoort,7712,-22.91019,29.61103,2002-06-12 to 2019-05-22
A8H001,Nzhelele River @ Kondoa,543,-22.79299,30.07031,1932-10-03 to 1946-12-29
A8H002,Mutamba River @ Bekaf,490,-22.80633,29.88892,1937-07-01 to 1947-03-01
A8H003,Mutamba River @ Prince's Hill,132,-22.86743,29.79975,1938-04-25 to 1942-12-31
A8H004,Nzhelele River @ Schuitdrift,855,-22.68411,30.09559,1938-04-25 to 1947-02-28
A8H005,Mutamba River @ King's Kloof,128,-22.88688,29.79669,1960-11-03 to 1976-09-30
A9H001,Luvuvhu River @ Weltevreden,902,-23.11242,30.38949,1912-12-12 to 2006-04-27
A9H002,Mutshindudi River @ Chibase,96,-22.90799,30.5281,1931-09-20 to 2000-02-23
A9H003,Tshinane River @ Chibase,62,-22.89814,30.52378,1931-09-02 to 2019-05-16
A9H004,Mutale River @ Tengwe,320,-22.77105,30.53894,1932-07-26 to 2004-06-22
A9H005,Luvuvhu River @ Nooitgedacht,611,-23.08563,30.17533,1946-01-07 to 2019-09-05
A9H006,Livhungwa River @ Barotta,16,-23.03572,30.27748,1961-11-13 to 2019-09-04
A9H007,Latonanda River @ Levubu Settlement,47,-23.05575,30.24476,1961-08-01 to 2000-02-23
A9H012,Luvuvhu River @ Mhinga,1758,-22.76851,30.88925,1987-11-04 to 2019-09-05
A9H013,Mutale River @ Kruger National Park,1776,-22.43773,31.07783,1988-11-02 to 2019-08-22
A9H024,Mutshindudi River @ Chibase Sibasa,51,-22.94882,30.35615,1994-06-29 to 1999-11-29
A9H025,Mutshindudi River @ Vredenburg,387,-22.8541,30.68616,1995-10-20 to 2019-09-05
A9H027,Latonanda @ Levubu Settlement,46,-23.05249,30.23934,2002-10-23 to 2019-09-04
A9H028,Luvuvhu @ Nooitgedacht,607,-23.08645,30.17487,2003-07-28 to 2019-09-05
A9H029,Mutale River @ Mutale Pump Station,329,-22.77266,30.5364,2003-12-15 to 2019-09-05
B1H001,Olifants River @ Mooifontein,3904.4,-25.80918,29.31945,1904-08-15 to 1951-10-01
B1H002,Spookspruit @ Elandspruit,252,-25.819,29.33775,1956-10-09 to 2019-07-10
B1H003,Little Olifants River @ Rondebosch,1576,-25.7739,29.54251,1957-10-05 to 1967-08-18
B1H004,Klipspruit @ Zaaihoek,376,-25.67363,29.17322,1959-02-08 to 2019-08-21
B1H005,Olifants River @ Wolwekrans,3256,-26.00655,29.25402,1972-07-13 to 2019-08-20
B1H012,Little Olifants River @ Rondebosch,1503,-25.80862,29.5864,1978-01-30 to 2019-08-21
B1H017,Steenkoolspruit @ Aangewys,387,-26.3063,29.27494,1989-11-21 to 2019-07-09
B1H018,Olifants River @ Middelkraal,985,-26.21702,29.45858,1989-11-22 to 2019-08-20
B1H019,Noupoortspruit @ Naauwpoort,88.1,-25.94105,29.25791,1990-03-05 to 2017-11-14
B1H020,Koringspruit @ Vaalkranz,133,-26.10566,29.33077,1990-03-08 to 2006-03-10
B1H021,Steenkoolspruit @ Middeldrift,1356.3,-26.13636,29.26977,1990-10-12 to 2019-08-20
B1H022,Trichardtspruit @ Trichardsfontein,12,-26.49435,29.23903,1991-02-07 to 2019-08-20
B1H032,Blesbokspruit @ Blesboklaagte,,-25.82013,29.20825,1998-01-30 to 2012-05-02
B2H001,Bronkhorst Spruit @ Roodepoort,1580,-25.79251,28.75527,1904-12-01 to 1951-10-25
B2H003,Bronkhorstspruit @ Bronkhorstspruit,1574,-25.79916,28.73591,1982-08-30 to 2019-08-19
B2H004,Osspruit @ Boschkop,123,-25.92461,28.58588,1984-10-08 to 2019-08-19
B2H005,Os Spruit @ Knoppiesfontein,16,-25.99416,28.5122,1984-10-08 to 1997-06-24
B2H006,Osspruit @ Witpoort,54,-25.96766,28.5505,1984-11-14 to 2006-10-04
B2H007,Koffiespruit @ Waaikraal,317,-25.99541,28.6635,1985-08-26 to 2019-08-19
B2H008,Koffiespruit Tributary @ Rietvallei,100,-26.07905,28.56286,1985-08-26 to 2019-08-19
B2H009,Koffie Spruit @ Olifantsfontein,86,-26.09221,28.60332,1985-08-26 to 2002-03-19
B2H013,Bronkhorst Spruit @ Roodepoort,1580,-25.79251,28.75527,1907-02-05 to 1949-01-22
B2H014,Wilge River @ Onverwacht,1086,-25.82586,28.87941,1990-11-07 to 2019-08-19
B2H015,Wilge River @ Zusterstroom,3908,-25.6163,29.01516,1992-10-06 to 2011-05-31
B2H016,Wilger River @ Waterval,4293,-25.57877,29.12747,2005-03-08 to 2019-08-21
B3H001,Olifants River @ Loskop Noord,16553,-24.9265,29.3895,1938-08-06 to 2011-05-31
B3H002,Elands River @ Rust De Winter,1206,-25.20949,28.56887,1929-10-01 to 1933-09-30
B3H003,Elands River @ Kameel River,1050,-25.26282,28.4672,1965-10-02 to 1973-01-29
B3H004,Elands River @ Loskop Noord,6133,-24.88535,29.35723,1966-10-01 to 1987-12-03
B3H005,Moses River @ Mosesriviermond,1673,-24.99118,29.35112,1969-06-11 to 1986-11-26
B3H006,Diepkloof Spruit @ Diepkloof,244,-25.15422,29.49724,1970-07-08 to 1988-06-01
B3H007,Moses River @ Uitspanning,971,-25.27225,29.18069,1980-03-13 to 2019-08-22
B3H008,Elands River @ Weltevreden,4083,-25.11506,28.99722,1981-10-26 to 1988-03-07
B3H021,Elands River @ Skerp Arabie,6119,-24.92647,29.32338,1989-04-18 to 2019-07-12
B3H025,Loskop Noord,16447,-24.95861,29.39527,2007-03-22 to 2019-08-22
B3H026,Eagle's Flight,16421,-24.98036,29.37597,2007-08-01 to 2019-08-22
B4H002,Steelpoort River @ Apiesboomen,4411,-24.66592,30.29365,1931-05-16 to 1937-01-31
B4H003,Steelpoort River @ Buffelskloof,2249,-25.02911,29.8558,1957-09-01 to 2019-09-02
B4H005,Waterval River @ Modderspruit,188,-25.03594,30.21941,1960-09-03 to 2019-09-03
B4H007,Klein-Spekboom River @ Potloodspruit,151,-25.00938,30.50019,1968-08-05 to 2019-09-03
B4H009,Dwars River @ Dwars River,448,-24.91205,30.10327,1966-09-04 to 2019-09-02
B4H010,Dorps River @ Lydenburg Nat Res,526,-25.07513,30.43908,1979-09-27 to 2019-07-30
B4H024,Steelpoort River @ De Hoop Upper,,-25.06676,29.83338,2012-02-01 to 2019-07-29
B4H025,Steelpoort River @ Taung,,-24.48338,30.40027,2012-02-02 to 2019-10-02
B5H002,Olifants River @ Zeekoegat,31416,-24.26817,29.80113,1948-09-01 to 1980-01-31
B5L006,Veekraal,,-23.90403,29.88642,2005-09-21 to 2011-02-15
B6H001,Blyde River @ Willemsoord,518,-24.68025,30.80213,1909-11-11 to 2019-07-30
B6H002,Treur River @ Willemsoord,97,-24.68231,30.8145,1909-12-19 to 1939-03-01
B6H003,Treur River @ Willemsoord,92,-24.68718,30.81368,1959-08-31 to 2019-07-30
B6H004,Blyde River @ Chester,2241,-24.45931,30.82735,1950-11-01 to 2012-01-18
B6H005,Blyde River @ Driehoek,2204,-24.51752,30.83174,1958-08-16 to 2019-08-01
B6H006,Kranskloofspruit @ Krugerspost,43,-24.92735,30.54655,1968-07-31 to 2007-04-19
B6H007,Vyehoek River @ Vygenhoek,86,-24.72481,30.64366,1971-10-20 to 1979-04-17
B6H016,Blyde River @ Willemsoord,518,-24.67981,30.80227,1910-03-06 to 1925-03-27
B6H017,Blyde River @ Middlesex,,-24.31418,30.8562,2005-04-20 to 2009-12-01
B7H001,Klaserie River @ Fleur De Lys,137,-24.55065,31.02645,1938-07-01 to 1950-09-30
B7H003,Selati River @ Calais,84,-24.12262,30.35837,1948-09-21 to 1972-11-23
B7H004,Klaserie River @ Fleur De Lys,136,-24.55622,31.03225,1950-11-01 to 2019-07-30
B7H006,Ngotso River @ Kruger National Park,41,-24.13401,31.6998,1952-11-01 to 1958-11-30
B7H007,Olifants River @ Oxford,46583,-24.18473,30.82299,1955-10-01 to 2019-06-13
B7H008,Selati River @ Masunga River,832,-24.0094,30.67236,1956-04-24 to 1999-01-01
B7H009,Olifants River @ Finale,42472,-24.33116,30.74163,1960-08-30 to 2015-11-17
B7H010,Ngwabitsi River @ Harmony,318,-24.035,30.43356,1960-07-27 to 2019-08-01
B7H011,Mohlapitse River @ Gemini,262,-24.16429,30.10559,1963-01-10 to 1988-07-03
B7H012,Klaserie River @ Casketts,444,-24.33678,31.14673,1965-10-21 to 1973-10-30
B7H013,Mohlapitse River @ Mafefes Location,263,-24.17347,30.10274,1970-08-11 to 2019-08-02
B7H014,Selati River @ Calais,84,-24.12415,30.35551,1973-08-01 to 2019-09-05
B7H015,Olifants River @ Mamba Kruger National Park,49826,-24.06628,31.24288,1987-11-17 to 2019-07-31
B7H019,Ga-Selati River @ Loole,2268,-24.03642,31.12821,1988-10-21 to 2019-07-31
B7H020,Timbavati River @ Piet Grobler Dam Kruger National Park,935.5,-24.231,31.634,1988-12-01 to 2018-05-23
B7H023,Ngwabitsi River @ Tours,58,-24.09263,30.27504,1948-10-01 to 1960-07-31
B7H026,Olifants River @ Balule Kruger National Park,53820,-24.05652,31.72091,1994-07-15 to 2019-07-31
B8H001,Great-Letaba River @ Redbank,272,-23.89403,30.06948,1930-06-25 to 1964-12-29
B8H002,Great-Letaba River @ Manorvlei,658,-23.81737,30.16476,1930-08-21 to 1976-07-05
B8H003,Mooketsi River @ Matomahoek,251,-23.55183,30.1592,1948-07-12 to 1951-07-31
B8H004,Great-Letaba River @ Lucerne,232,-23.92736,30.04309,1948-07-14 to 1960-12-30
B8H005,Broederstroom @ Swallow Falls,17,-23.80209,29.98003,1948-09-10 to 1956-06-30
B8H006,Broederstroom @ Clearwaters,38,-23.85514,29.94808,1948-09-13 to 1954-09-01
B8H007,Great-Letaba River @ Mahale,4608,-23.67099,30.99006,1956-05-01 to 1968-07-24
B8H008,Great-Letaba River @ Letaba Ranch,4710,-23.65837,31.0499,1959-09-14 to 2019-10-12
B8H009,Great-Letaba River @ The Junction,851,-23.8793,30.36744,1960-01-12 to 2019-05-21
B8H010,Letsitele River @ Mohlabas Location,477,-23.89317,30.35765,1960-01-13 to 2019-10-12
B8H012,Madikeleni River @ Fredericksdal,1.15,-23.73404,30.06948,1961-05-22 to 1967-04-22
B8H013,Mooketsi River @ Mokeetsi,224,-23.60072,30.09531,1963-01-14 to 1976-04-30
B8H014,Great-Letaba River @ Grysappel,294,-23.88001,30.07964,1968-05-03 to 2019-10-07
B8H015,Little-Letaba River @ Rossbach,421,-23.22407,30.05364,1970-09-08 to 1973-01-05
B8H017,Great-Letaba River @ Prieska,2619,-23.64701,30.71844,1977-03-15 to 2019-09-04
B8H018,Letaba River @ Engelhardt dam Kruger National Park,12938,-23.83532,31.63744,1984-02-14 to 2019-04-02
B8H019,Tsende River @ Pioneer Dam Kruger National Park,380,-23.52622,31.39772,1984-01-04 to 2019-03-29
B8H033,Little-Letaba River @ Locatie Van Tabaan,2988,-23.28101,30.54309,1986-08-11 to 2019-07-03
B8H034,Great-Letaba River @ Black Heron Kruger National Park,10652,-23.70217,31.21661,1988-09-08 to 2019-04-01
B8H043,Ramadiepa River @ Waterval,88,-23.75071,30.10809,1977-07-01 to 1980-05-28
B8H069,Molototsi River @ Modjadjes 424 Lt,,-23.58599,30.34976,1997-09-04 to 2006-05-01
B9H001,Shisha River @ Vlakteplaas Kruger National Park,648,-22.83854,31.23709,1960-08-28 to 2019-08-21
B9H002,Shingwidzi River @ Silwervis Kruger National Park,810,-23.21628,31.22354,1983-11-15 to 2019-08-21
B9H003,Shingwidzi River @ Kanniedood Kruger National Park,4540,-23.14326,31.46262,1984-02-01 to 2013-02-19
B9H004,Mphongola River @ Sirheni Kruger National Park,739,-22.95096,31.23374,1983-11-15 to 2013-02-13
B9H005,Phugwane River @ Wik-en-Weeg Dam Kruger National Park,542,-23.0427,31.14979,1983-11-22 to 1992-12-13
C1H001,Vaal River @ Langverwyl,8193,-26.94244,29.26388,1905-02-01 to 1989-02-21
C1H002,Klip River @ Sterkfontein,4152,-27.16975,29.23331,1906-10-01 to 2019-10-03
C1H003,Vaal River @ Villiers,18616,-27.01077,28.6258,1938-08-06 to 1971-09-13
C1H004,Waterval River @ Branddrift,901,-26.62792,29.02453,1960-08-12 to 2019-10-02
C1H005,Leeu Spruit @ Welbedacht,341,-26.85425,29.32531,1964-12-04 to 2019-06-20
C1H006,Blesbok Spruit @ Rietvley,1094,-26.77589,29.5415,1964-12-11 to 2019-10-02
C1H007,Vaal River @ Goedgeluk,4686,-26.84108,29.72336,1972-10-22 to 2019-10-02
C1H008,Waterval River @ Elandslaagte,2212,-26.86133,28.88461,1973-12-12 to 2019-10-02
C1H009,Molspruit @ Leeufontein,476,-26.91658,28.43661,1974-02-25 to 1990-08-23
C1H010,Bankplaas Spruit @ Sweethome,344,-27.07438,28.5653,1974-02-21 to 1990-08-23
C1H011,Vaal River @ Grootdraai,18597,-27.01938,28.6455,1976-02-23 to 1984-02-28
C1H012,Vaal River @ Nooitgedacht,15500,-27.00231,28.76528,1985-09-23 to 2019-10-02
C1H014,Vaal River @ Langverwyl,8193,-26.94241,29.26391,1905-12-12 to 1989-02-21
C1H015,Klip River @ Steel Bridge Sterkfontein,4152,-27.17447,29.23572,1906-11-13 to 2019-08-29
C1H017,Vaal River @ Villiers,18616,-27.02314,28.59389,1980-09-30 to 2019-09-30
C1H027,Tweefontein Spruit @ Tweefontein,1337.2,-26.78075,29.80697,1994-11-15 to 2019-10-02
C1H044,Leeu Spruit @ Welbedacht,,-26.84883,29.31522,2002-08-01 to 2019-06-20
C2H002,Schoon Spruit @ Elandsheuwel,5782,-26.85269,26.63436,1905-03-01 to 1935-09-30
C2H003,Vaal River @ Elandsfontein,38660,-26.82022,28.0633,1915-10-29 to 1993-12-13
C2H005,Riet Spruit @ Kaalplaats,1121,-26.72867,27.718,1952-09-29 to 2019-09-05
C2H008,Vaal River @ Woodlands,47214,-26.7358,27.60827,1952-09-29 to 1996-10-10
C2H010,Vaal River @ Rietfontein,44665,-26.68969,27.93608,1900-11-30 to 1922-10-31
C2H014,Taaibos Spruit @ Verdun,825,-26.82438,27.92552,1952-09-29 to 1977-10-01
C2H015,Klip River @ Waldrift,2250,-26.6438,27.96438,1952-09-29 to 1977-10-01
C2H017,Vaal River @ Killarney,81593,-27.48072,26.22133,1929-11-20 to 1957-10-09
C2H018,Vaal River @ De Vaal,49120,-26.97056,27.20967,1938-10-03 to 2019-09-03
C2H021,Klip River @ Witkop,1726,-26.45411,28.0855,1952-08-27 to 1996-03-18
C2H022,Vaal River @ Balkfontein,79886,-27.39777,26.50555,1951-04-11 to 1992-11-24
C2H061,Vaal River @ Klipplaatdrift,79903,-27.38972,26.46388,1972-01-17 to 2019-05-16
C2H065,Leeudoring Spruit @ Klipspruit,860,-27.37,26.35083,1970-12-01 to 2008-03-18
C2H066,Makwassie Spruit @ Vliegekraal,1101,-27.49138,26.07444,1970-11-20 to 2008-06-24
C2H067,Sand Spruit @ Leegte,1895,-27.56064,26.2335,1971-05-02 to 2004-03-29
C2H070,Suikerbosrant River @ Platkoppie,3124,-26.6405,28.22997,1977-06-13 to 1996-02-12
C2H071,Klip River @ Kookfontein,2205,-26.61994,27.98052,2009-01-07 to 2018-01-08
C2H073,Skoon Spruit @ Goedgenoeg,5969,-26.98472,26.63228,1986-08-18 to 2008-02-25
C2H084,Skoon Spruit @ Klerksdorp,,-26.87438,26.65825,1989-11-06 to 1997-09-01
C2H085,Mooi River @ Hoogekraal,,-26.8805,26.96428,1986-09-02 to 2019-06-14
C2H093,Schoon Spruit @ Elandsheuwel,5782,-26.85266,26.63436,1906-03-09 to 1934-02-01
C2H122,Vaal River @ Annie's Rust,38620,-26.85347,28.12139,1981-01-20 to 2019-09-30
C2H124,Vaal River @ Killarney,81593,-27.48072,26.22133,1938-10-22 to 1975-07-28
C2H130,Vaal River @ Elandsfontein,38660,-26.82022,28.06331,1924-01-29 to 1961-01-14
C2H133,Blesbok Spruit @ Heidelberg,,-26.51064,28.35075,2004-06-22 to 2012-01-19
C2H136,Riet Spruit @ Waterval,,-26.45078,28.08933,2011-05-13 to 2019-07-10
C2H140,Vaal River @ Woodlands,47222,-26.73828,27.59197,1996-10-17 to 2019-09-30
C2H141,Klip River @ Witkop,1726,-26.45369,28.08578,1977-10-12 to 2011-10-11
C2H177,Blesbok Spruit @ Welgedacht,,-26.43794,28.46639,2003-11-07 to 2013-11-28
C2H234,Suikerbosrant River @ Badfontein,3356,-26.69408,28.10731,2006-01-02 to 2017-11-01
C3H002,Harts River @ Banks Drift,22512,-27.72516,24.7082,1923-10-01 to 1936-06-30
C3H003,Harts River @ Taung,10740,-27.5735,24.74598,1923-10-01 to 2019-08-15
C3H004,Droe Harts River @ Taung,10204,-27.55989,24.70625,1923-11-01 to 1947-03-31
C3H005,Harts River @ Schweizer Reneke,9259,-27.19908,25.33044,1929-10-01 to 1934-02-28
C3H006,Harts River @ Groenfontein,,-26.61801,25.57684,1929-08-01 to 1941-05-01
C3H007,Harts River @ Espagsdrif,23900,-27.9032,24.61514,1951-05-01 to 2019-08-13
C3H013,Harts River @ Spitskop,28145,-28.16291,24.47069,1967-10-21 to 1994-08-25
C3H016,Harts River @ Lloyds,30810,-28.38651,24.29707,1994-11-28 to 2019-08-13
C3H017,Harts River @ Tlapeng,10390,-27.47212,24.93043,1995-07-02 to 2019-08-15
C4H001,Vet River @ Paardevallei,5590,-28.47388,26.68333,1923-09-01 to 1949-12-01
C4H002,Vet River @ Floorsdrift,17599,-27.84027,25.90472,1935-12-13 to 1972-05-31
C4H003,Sand River @ Virginia,5407,-28.11305,26.90916,1938-10-20 to 1954-02-01
C4H004,Vet River @ Fizantkraal,16153,-27.935,26.12444,1968-09-05 to 2019-05-15
C4H011,Vet River @ Floorsdrift,17599,-27.84555,25.90888,1936-02-14 to 1957-10-14
C4H015,Vet River @ Vaalkoppies,6994,-28.14444,26.41805,2003-09-02 to 2019-05-16
C4H016,Sand River @ Bloudrif,7092,-28.11722,26.71916,1995-11-20 to 2019-05-15
C4H017,Doring River @ Mond Van Doorn River,586.35,-28.11666,26.72527,1996-05-26 to 2018-10-09
C5H001,Riet River @ Ebani,10900,-29.44756,25.08792,1912-10-01 to 1938-03-31
C5H002,Tierpoort River @ Riversford,940,-29.40451,26.10768,1913-10-09 to 1924-06-24
C5H003,Modder River @ Likatlong,1650,-29.16083,26.57222,1918-07-01 to 2019-07-17
C5H004,Modder River @ Thongrove,4917.1,-28.84537,26.18963,1919-04-01 to 1947-11-01
C5H005,Modder River @ Mazelspoort,3088,-29.04453,26.4063,1905-02-01 to 1916-09-30
C5H006,Renoster Spruit @ Bishop's Glen,697,-28.98444,26.34166,1922-11-13 to 1926-12-31
C5H007,Renoster Spruit @ Shannon Valley,348,-29.14416,26.31805,1923-10-01 to 2019-07-17
C5H008,Riet River @ Riviera,593,-29.81254,26.21185,1931-04-01 to 1986-04-01
C5H009,Ospoort Spruit @ Os Poort,191,-29.90254,26.21462,1931-03-01 to 1986-05-11
C5H010,Kromellenboogspruit @ Boomplaats,1849,-29.83448,25.64655,1931-03-01 to 1948-08-01
C5H011,Ruigte Spruit @ Last Poort,260,-29.81199,26.33741,1934-01-01 to 1949-03-22
C5H012,Riet River @ Kromdraai,2372,-29.65805,25.97277,1936-04-01 to 2019-09-10
C5H013,Modder River @ Perdeberg,15011,-28.9887,25.08293,1948-05-01 to 1956-09-30
C5H014,Riet River @ Klipdrift,31233,-29.0425,24.59916,1938-10-17 to 2019-10-09
C5H015,Modder River @ Stoomhoek,6400,-28.80788,26.11185,1949-01-01 to 1983-11-22
C5H016,Riet River @ Estate Biesiesbult,33351,-28.96036,24.24207,1953-02-01 to 1999-03-10
C5H017,Modder River @ Likatlong,,-29.05036,26.46213,1920-01-24 to 1952-03-02
C5H018,Modder River @ Twee River,17315,-29.04369,24.64041,1960-01-11 to 1999-03-15
C5H020,Trompsburgfontein @ Trompsburg,,-30.03864,25.77822,1968-11-01 to 1993-12-30
C5H022,Kgabanyane River @ Bedford,38,-29.28583,26.92083,1980-10-14 to 2019-07-18
C5H023,Kgabanyane River @ Dankbaar,181,-29.28611,26.76361,1983-06-04 to 2008-09-23
C5H035,Modder River @ Tweeriviere,17313,-29.02861,24.63833,1989-08-03 to 2019-10-09
C5H045,Riet River @ Ebani,10900,-29.44756,25.08792,1914-11-24 to 1936-11-20
C5H046,Modder River @ Thongrove,4039,-28.84537,26.18963,1920-02-28 to 1925-05-31
C5H047,Modder River @ Perdeberg,15011,-28.9887,25.08293,1949-02-27 to 1955-02-16
C5H048,Contact Region For Correct Data: C5H057 Influences Data,34602,-29.03277,23.98277,1990-07-06 to 2019-07-18
C5H053,Modder River @ Glen,4542,-28.94861,26.32111,1999-11-29 to 2019-05-10
C5H054,Renoster Spruit @ Bishop's Glen,688,-28.96666,26.33277,1995-10-18 to 2019-05-10
C5H056,Modder River @ Diepwater,0,-29.37555,26.66555,2002-01-30 to 2019-09-10
C6H001,Vals River @ Roodewal,5674,-27.44138,26.98583,1913-01-15 to 2019-10-02
C6H002,Vals River @ Grootdraai,7773,-27.39861,26.61333,1950-12-06 to 2019-10-02
C6H003,Vals River @ Mooifontein,7765,-27.4,26.62555,1967-03-22 to 2010-02-17
C6H004,Vals River @ Klipfontein,856,-27.93583,27.99638,1964-06-01 to 1988-03-08
C6H005,Vals River @ Roodewal,5674,-27.44138,26.98638,1913-10-13 to 1934-08-19
C6H006,Vals River @ Tweefontein,7337,-27.47611,26.65694,2002-08-28 to 2019-08-22
C6H007,Vals River @ Kroonstad,3289,-27.67138,27.23694,1994-10-01 to 2019-08-22
C6H009,Vals River @ Lindley,1103,-27.8725,27.91416,2002-10-08 to 2019-07-23
C7H001,Renoster River @ Junction,5227,-27.26527,27.17277,1923-09-01 to 2019-05-15
C7H002,Heuning Spruit @ Wonderheuvel,1085,-27.29166,27.2075,1930-03-13 to 1947-11-01
C7H003,Heuning Spruit @ Dankbaar,914,-27.35611,27.28555,1947-11-01 to 2019-01-24
C7H004,Renoster River @ Schietlaagte A,5510,-27.16694,27.1075,1949-03-13 to 1954-01-31
C7H005,Renoster River @ Spes Bona,5577,-27.12305,27.10916,1954-03-15 to 1995-10-09
C7H006,Renoster River @ Arriesrust,5758,-27.04628,27.00464,1978-04-18 to 2019-07-11
C7H013,Renoster River @ Fischer,2148,-27.25908,27.67245,1979-05-01 to 1982-01-31
C7H014,Heuning Spruit @ Dankbaar,914,-27.35713,27.28605,1951-10-11 to 1953-02-26
C7H019,Renoster River @ Verheugd,,-27.26936,27.22854,2010-09-07 to 2019-07-25
C7H020,Rhenoster River @ Doorndraai,,-27.2163,27.4744,2007-08-15 to 2019-07-25
C8H001,Wilge River @ Frankfort,15673,-27.27166,28.49111,1913-10-01 to 2019-09-18
C8H002,Wilge River @ Harrismith,978,-28.27069,29.11138,1947-09-01 to 1977-03-31
C8H003,Cornelis River @ Warden,806,-27.845,28.96222,1954-01-13 to 2019-06-13
C8H004,Liebenbergsvlei River @ De Molen,3527,-27.70045,28.32136,1957-03-01 to 1996-01-24
C8H005,Elands River @ Elands River Drift,696,-28.37583,28.86027,1963-12-12 to 2019-05-28
C8H006,Klerks Spruit @ Geduld,432,-28.29625,28.80526,1964-10-15 to 1985-11-21
C8H007,Liebenbergsvlei River @ Vogelfontein,868,-28.19097,28.34386,1964-12-04 to 1978-03-21
C8H009,Tier River @ Tygerhoek,465,-28.05404,28.4922,1971-11-25 to 2012-05-09
C8H010,Ouberg Spruit @ Fraser Spruit,250,-28.35638,29.09138,1973-02-24 to 2012-02-01
C8H011,Elands River @ Killarney,1486,-28.16125,28.87443,1972-08-02 to 1997-12-10
C8H012,Vaalbank Spruit @ Voorspoed,386,-28.085,28.83694,1971-11-20 to 2019-04-03
C8H013,Vaalbank Spruit-West @ Vaalbank 327,251,-28.1075,28.78555,1971-11-27 to 2015-07-14
C8H014,Wilge River @ Bavaria,7497,-27.81489,28.78304,1973-10-31 to 2002-07-16
C8H016,Krom Spruit @ Cosmos,549,-27.25825,28.40636,1974-02-19 to 1990-08-23
C8H017,Klip River @ Klipoog,825,-27.12937,28.28358,1974-03-13 to 1990-08-23
C8H018,Hol Spruit @ Davidsdale,619,-27.65184,28.86832,1974-02-16 to 1990-08-22
C8H020,Liebenbergsvlei River @ Roodekraal,3578,-27.68972,28.375,1974-10-14 to 2019-07-05
C8H021,Skulp Spruit @ Kalkoen,177,-27.3063,28.48553,1980-10-06 to 1990-02-23
C8H022,Wilge River @ Slabberts,15466,-27.29861,28.49583,1961-12-11 to 2008-07-02
C8H023,Meul River @ The Willows,1656,-28.02305,28.99472,1978-09-28 to 2019-07-25
C8H024,Middel Spruit @ Middelspruit,10,-28.0757,28.6997,1979-10-24 to 1994-07-27
C8H025,Vaalbank Spruit @ Rustkop,79,-28.13222,28.76222,1979-10-24 to 2019-07-05
C8H026,Liebenbergsvlei River @ Frederiksdal,4650,-27.43083,28.52638,1985-03-21 to 2019-09-17
C8H027,Wilge River @ Ballingtomp,10489,-27.30138,28.58555,1985-06-06 to 2019-09-17
C8H028,Wilge River @ Bavaria,7497,-27.80277,28.7675,1988-12-02 to 2019-06-13
C8H030,Wilge River @ Slabberts,15466,-27.29388,28.48888,2003-08-14 to 2019-06-26
C8H033,Wilge River @ Frankfort,,-27.26631,28.48803,1913-10-13 to 1967-02-19
C8H034,Liebenbergsvlei River @ Roodekraal,,-27.68961,28.37803,1979-09-20 to 1988-03-12
C8H037,Liebenbergsvlei @ Reward,2803,-27.79583,28.31777,1998-06-30 to 2019-05-16
C8H039,Makgateng River @ Lejwaneng,,-28.64333,28.84027,1999-10-13 to 2002-06-04
C9H001,Vaal River @ Warrenton,115114,-28.09375,24.8707,1911-01-01 to 1932-02-29
C9H002,Vaal River @ St Claire,194860,-29.04369,23.83678,1908-01-03 to 1911-08-01
C9H003,Vaal River @ Riverton,121070,-28.51344,24.69708,1909-01-01 to 2019-08-13
C9H004,Vaal River @ Bucklands,195329,-29.07119,23.63622,1929-09-13 to 1940-06-30
C9H005,Vaal River @ De Hoop,120982,-28.499,24.60319,1909-01-01 to 1957-11-30
C9H007,Vaal River @ St Claire,194860,-29.04369,23.83678,1947-09-16 to 1977-07-11
C9H009,Vaal River @ De Hoop 65,121220,-28.51622,24.60069,1968-08-13 to 2019-08-13
C9H010,Vaal River @ Gamagara,153065,-28.40623,24.27124,1974-10-30 to 2019-08-13
C9H022,Vaal River @ St Claire,194860,-29.04369,23.83678,1959-03-04 to 1965-03-31
C9H024,Vaal River @ Schmidtsdrif,157830,-28.71149,24.0729,1995-02-09 to 2019-08-13
C9H026,Vaal River @ Sydney-On-Vaal,122225,-28.45046,24.32643,1993-03-25 to 2019-08-13
D1H001,Wonderboom Spruit @ Diepkloof,2388,-31.00111,26.35305,1912-10-01 to 2019-09-18
D1H002,Orange River @ Aliwal-North,37020,-30.68805,26.69714,1904-01-13 to 1913-11-30
D1H003,Orange River @ Aliwal-North,36975,-30.67833,26.71638,1907-08-11 to 2019-06-27
D1H004,Stormberg Spruit @ Molteno,341,-31.40023,26.37101,1925-02-13 to 1981-07-01
D1H005,Orange River @ Lesotho,10740,-30.04877,28.50561,1932-08-11 to 2001-10-17
D1H006,Kornet Spruit @ Maghaleen,2990,-30.15972,27.40138,1935-11-14 to 2019-08-28
D1H007,Kraai River @ Buffelsvallei,9302,-30.72722,26.78242,1951-02-16 to 1969-05-31
D1H009,Orange River @ Oranjedraai,24685,-30.33638,27.35861,1958-11-05 to 2019-08-15
D1H010,Stormberg Spruit @ Molteno,325,-31.4069,26.36796,1962-11-22 to 1983-06-13
D1H011,Kraai River @ Roodewal,8664,-30.83055,26.92055,1965-10-06 to 2019-06-26
D1H019,Malibamatso River @ Lesotho,827,-29.01704,28.53303,1984-09-25 to 1986-05-21
D1H025,Malibamatso River @ Lesotho,3227,-29.48368,28.6497,1966-12-01 to 1996-09-11
D1H026,Senqu River @ Lesotho,7901,-29.58367,28.6997,1984-09-11 to 1986-07-14
D1H029,Bokong River @ Lesotho,404,-29.33368,28.46636,1984-09-14 to 1986-06-18
D1H030,Matsoku River @ Lesotho,674,-29.28369,28.56636,1984-09-13 to 1986-06-17
D1H031,Senqu River @ Lesotho,19710,-30.36418,27.57466,1972-09-04 to 1984-01-19
D1H032,Senqunyane River @ Marakabei,3220,-29.54988,28.15202,1985-11-23 to 2019-09-05
D1H033,Malibamatso River @ Paray,1083,-29.48505,28.64444,1985-11-21 to 2019-09-04
D1H034,Kornet Spruit @ Maghaleen,2998,-30.16388,27.39583,1985-11-11 to 2019-08-28
D1H035,Orange River @ Lesotho - Mantilane,10735,-30.06186,28.50975,1987-06-19 to 2019-07-18
D1H037,Wonderboom Spruit @ Diepkloof,2393,-31.00109,26.35268,1915-01-25 to 1950-02-24
D1H038,Kornet Spruit @ Maghaleen,2987,-30.16058,27.40133,1947-12-16 to 1948-12-28
D1H040,Orange River @ Lesotho,10740,-30.04726,28.50692,1947-10-01 to 1976-10-21
D1H041,Senqu River @ Polihali,3166,-29.29666,28.85555,2013-12-03 to 2019-09-03
D2H001,Caledon River @ Jammerdrif,13421,-29.7156,26.98298,1926-09-07 to 1978-10-03
D2H002,Witte Spruit @ Egmont,309.9,-30.05253,27.02826,1933-11-16 to 1936-05-30
D2H003,Leeu River @ Hobhouse,1424,-29.52728,27.1366,1934-11-01 to 1954-09-30
D2H004,Riet Spruit @ Novo,762,-29.7531,26.86575,1935-03-01 to 1948-12-31
D2H005,Caledon River @ Lesotho,3857,-28.88315,27.88996,1941-12-01 to 1956-01-31
D2H012,Little Caledon River @ The Poplars,518,-28.69485,28.23487,1968-06-17 to 2019-09-02
D2H020,Caledon River @ Pleasant View,8339,-29.30138,27.48805,1982-07-21 to 2010-03-10
D2H022,Caledon River @ Wilgerdraai,12852,-29.61666,27.06555,1988-11-09 to 2019-09-12
D2H029,Caledon River @ Jammerdrif,13421,-29.7156,26.98298,1919-10-01 to 1960-04-21
D2H030,Caledon River @ Border Post Bridge,8347,-29.29813,27.45383,1989-11-01 to 1991-03-19
D2H034,Meul Spruit @ Mpharane,1082,-28.88055,27.835,1991-10-17 to 2019-07-04
D2H035,Caledon River @ Ficksburg,3857,-28.88388,27.88944,1991-10-17 to 2019-07-04
D2H037,Caledon River @ Wilgedraai,12850,-29.60944,27.06444,1993-12-14 to 2010-07-22
D2H039,Caledon River @ Caledonspoort,,-28.69444,28.23388,2004-09-30 to 2019-07-01
D3H001,Seekoei River @ Haasfontein,4155,-31.17635,24.59485,1911-10-01 to 1942-10-31
D3H002,Orange River @ Bethulie,65615,-30.53722,25.98545,1904-01-14 to 1970-07-30
D3H003,Orange River @ Doornbult Uitspan,94765,-29.64616,24.20373,1913-11-01 to 1951-11-30
D3H004,Orange River @ Waschbank,70849,-30.62138,25.46404,1903-12-14 to 1981-06-24
D3H005,Orange River @ Vluytjeskraal,92346,-29.81476,24.43763,1922-08-23 to 1989-06-30
D3H006,Suurberg Spruit @ Klipkraal,471,-30.91382,25.5771,1933-10-01 to 1937-06-30
D3H007,Seekoei River @ Welbedacht,4390.4,-31.06469,24.57235,1959-11-01 to 1974-03-04
D3H008,Orange River @ Marksdrift,99316,-29.16201,23.69594,1962-08-14 to 2019-07-17
D3H009,Orange River @ Seekoegat,69068,-30.6886,25.76155,1964-03-16 to 1970-11-30
D3H010,Orange River @ Seekoegat,,-30.69083,25.76322,1980-09-24 to 1987-06-16
D3H011,Orange River @ Boshismanpoort,65129,-30.53306,26.02573,1971-04-26 to 1982-11-01
D3H015,Seekoei River @ De Eerstepoort,8266,-30.53472,24.9625,1980-06-22 to 2019-08-08
D3H016,Orange River @ Vluytjeskraal,92474,-29.78948,24.40957,1982-08-17 to 1990-09-03
D3H025,Orange River @ Marktsdrift,99316,-29.16201,23.69594,1968-12-02 to 1991-02-21
D3H027,Orange River @ Vluytjeskraal,92346,-29.81476,24.43763,1948-05-01 to 1977-07-26
D4H002,Mareetsane River @ Neverset,566,-26.08776,25.28489,1905-10-01 to 1964-10-01
D4H003,Swartbas River @ Rietfontein,181,-26.7202,20.02556,1941-10-01 to 1948-10-31
D4H013,Molopo River @ Rietvallei,241,-25.85639,25.86561,1964-03-10 to 2018-03-06
D4H014,Molopo-Eye @ Mallepoos-Eye,,-25.88294,26.02044,1981-12-07 to 2019-09-24
D4H030,Compensation Water from Pipeline @ Mallepoos-Eye,,-25.88289,26.02033,1974-11-26 to 2018-06-06
D4H032,Mareetsane River @ Neverset,566,-26.08776,25.28489,1927-01-01 to 1964-10-01
D4H037,Molopo River @ Lotlamoreng Dam Mmabatho,1491,-25.87719,25.60003,1995-10-04 to 2018-06-05
D4H038, Raw Water Pipeline to Treatment Works @ Molopo,,-25.84978,25.50953,1999-12-06 to 2019-07-31
D5H001,Renoster River @ Mullersvlei,2090,-30.65,20.6166,1927-02-01 to 1953-07-01
D5H002,Sak River @ Lekkerleg,16979,-31.34577,20.81251,1927-04-01 to 1973-06-08
D5H003,Fish River @ Hardeheuwel,1509,,,
